name,station,score,review,address,latitude,longitude
로우커피스탠드,뚝섬역,4.5,373,서울 성동구 왕십리로4길 28-2 1층,37.5471333,127.0466301
센터커피 서울숲점,뚝섬역,3.8,505,서울 성동구 서울숲2길 28-11 1층,37.5465341,127.0416644
카페&펍 연무장,뚝섬역,3.5,384,서울 성동구 연무장길 36 8층,37.5428635,127.0533094
블루보틀 성수 카페,뚝섬역,3.2,822,서울 성동구 아차산로 7,37.5480855,127.0456501
로우키,뚝섬역,4.4,711,서울 성동구 연무장3길 6 1층,37.5441954,127.0515838
할아버지공장,뚝섬역,3.2,727,서울 성동구 성수이로7가길 9 1-2층,37.5411231,127.0548807
어니언 성수,뚝섬역,3.5,1037,서울 성동구 아차산로9길 8 1-2층,37.5447169,127.0582995
파머스카페,뚝섬역,4.1,1047,서울 성동구 왕십리로6길 11 1층,37.5460053,127.0460921
이월로스터스 성수점,뚝섬역,4.1,117,서울 성동구 서울숲2길 46,37.5461913,127.0437481
쎈느,뚝섬역,3.8,182,"서울 성동구 연무장5길 20 1,2층",37.5448471,127.0534209
성수동대림창고갤러리,뚝섬역,3.1,1295,서울 성동구 성수이로 78 1층,37.5418384,127.0564636
비엔나커피하우스 서울숲역점,뚝섬역,3.6,56,서울 성동구 왕십리로 66 1층,37.5434613,127.0450286
브레디포스트 성수,뚝섬역,4.2,4348,"서울 성동구 상원1길 5 1,2층 201호",37.5444991,127.0491623
업사이드커피 뚝섬점,뚝섬역,4.4,156,서울 성동구 왕십리로14길 19-1 1층,37.5487537,127.0459109
도렐 성수점,뚝섬역,2.9,256,서울 성동구 연무장7길 11 1층,37.5438054,127.0544306
치카 성수,뚝섬역,4.5,454,서울 성동구 뚝섬로1가길 14 1층,37.5423383,127.0471594
베통 성수,뚝섬역,4.6,391,서울 성동구 연무장7가길 8,37.54294470000001,127.0552259
마일스톤커피 성수,뚝섬역,4.0,461,서울 성동구 서울숲4길 15 1층,37.5474337,127.0428283
카페 투스프링,뚝섬역,4.4,15,서울 성동구 왕십리로4길 26-14 1층,37.546851,127.0468581
브루잉세레모니,뚝섬역,4.5,294,서울 성동구 연무장5가길 22-1 1층,37.5432581,127.055141
피치스 도원,뚝섬역,3.2,464,서울 성동구 연무장3길 9 1층,37.54461879999999,127.0513146
백야드빌더 성수점,뚝섬역,4.4,65,서울 성동구 광나루로 152,37.5514354,127.0470649
맛차차,뚝섬역,3.3,169,서울 성동구 서울숲2길 18-11,37.5468218,127.0406243
오우도,뚝섬역,4.4,326,서울 성동구 성수일로 55 1층,37.5454262,127.0494961
성수지앵,뚝섬역,4.4,606,서울 성동구 왕십리로 101 1-2층,37.5466656,127.0443846
크림라벨,뚝섬역,3.5,124,서울 성동구 서울숲2길 34 1층,37.546525,127.0423527
마를리,뚝섬역,3.4,927,서울 성동구 연무장길 47 홍원빌딩 1층,37.5428815,127.0547848
바이닐 성수,뚝섬역,3.7,460,서울 성동구 아차산로 15-8 디에스빌딩 2층,37.5479113,127.0461879
무브모브 카페,뚝섬역,4.4,184,서울 성동구 성수일로 56 1층 102호,37.5453869,127.0504651
피넛버터바나나,뚝섬역,3.5,855,서울 성동구 아차산로7길 15-8,37.5466832,127.054515
슈퍼말차 성수,뚝섬역,3.8,337,서울 성동구 서울숲6길 19 1층,37.5474957,127.0437688
커피오스,뚝섬역,4.8,41,서울 성동구 성수일로4길 31-1 1층,37.5421545,127.0522003
천상가옥,뚝섬역,3.6,654,서울 성동구 성수이로14길 14 3층,37.5415153,127.0569694
스타벅스 뚝섬역,뚝섬역,2.9,92,서울 성동구 아차산로 42,37.5464424,127.0491136
디어벌스데이,뚝섬역,3.8,100,서울 성동구 서울숲길 55 3층,37.5481983,127.0436702
메쉬커피,뚝섬역,3.6,207,서울 성동구 서울숲길 43,37.5481245,127.0424887
어라운드데이,뚝섬역,,1025,서울 성동구 서울숲2길 24-1,37.5468333,127.0413119
포레스트,뚝섬역,3.9,202,서울 성동구 서울숲2길 20-12,37.5467904,127.0407388
포어플랜,뚝섬역,3.4,514,서울 성동구 왕십리로14길 30-11,37.5482373,127.047502
모리티아,뚝섬역,3.6,69,서울 성동구 아차산로5길 10 1층,37.5466799,127.0525707
샌드카베,뚝섬역,4.7,209,서울 성동구 서울숲4길 22-18 1층,37.5468032,127.0430694
묘사서울,뚝섬역,3.3,498,서울 성동구 서울숲2길 2 2층,37.5478318,127.0397466
빽다방 서울숲역점,뚝섬역,3.0,16,서울 성동구 왕십리로 100 1층,37.5464628,127.0448837
5TO7,뚝섬역,3.7,1180,"서울 성동구 서울숲2길 44-13 1,2층",37.5460839,127.043323
시즈니,뚝섬역,4.7,205,서울 성동구 서울숲6길 14 거암아트빌라 2층 201호,37.5475077,127.0430577
에빠,뚝섬역,4.8,260,서울 성동구 왕십리로5길 19 1층,37.5477026,127.043687
옹근달,뚝섬역,2.3,798,"서울 성동구 성수이로7길 41-1 1, 2층",37.5427829,127.0530018
커피식탁,뚝섬역,3.9,42,서울 성동구 상원1길 15,37.5451426,127.0486877
그린룸,뚝섬역,4.9,36,서울 성동구 왕십리로 136 3층,37.549707,127.044548
공차 서울숲점,뚝섬역,2.6,25,서울 성동구 왕십리로 94-2 1층,37.5461123,127.0449738
플디,뚝섬역,,208,서울 성동구 상원길 44 2층,37.5479319,127.048527
컴포즈커피 성수점,뚝섬역,4.1,16,서울 성동구 상원1길 29 1층 2호,37.54625619999999,127.0476105
호텔아우프글렛 성수점,뚝섬역,3.0,90,서울 성동구 왕십리로10길 9-2 1~3층,37.5469042,127.0458201
섬세이 테라리움,뚝섬역,3.2,542,서울 성동구 서울숲2길 44-1 지하1층,37.5462414,127.0435723
카페서울숲,뚝섬역,3.8,70,서울 성동구 왕십리로 63 1층,37.5436067,127.0436433
체다앤올리,뚝섬역,,842,서울 성동구 서울숲2길 32-14 갤러리아포레 1층 113호,37.545702,127.042425
예빈당,뚝섬역,3.4,276,서울 성동구 성수이로 87 성문빌딩 1층,37.542814,127.0562605
해피캠퍼,뚝섬역,4.9,38,서울 성동구 왕십리로4길 10-15 1층,37.5456551,127.0462892
어퍼룸,뚝섬역,4.6,326,서울 성동구 성수일로12길 21 1층,37.548396,127.053607
카모플라쥬,뚝섬역,4.6,68,서울 성동구 아차산로1길 9,37.5489861,127.0456953
피어커피 성수,뚝섬역,4.2,152,서울 성동구 광나루로4가길 24 1층,37.5489186,127.0548742
어썸블리스,뚝섬역,5.0,30,서울 성동구 상원2길 5-11 3층,37.5462406,127.0494814
이곳에,뚝섬역,4.4,102,서울 성동구 왕십리로8길 24 1층,37.5458126,127.0472406
구욱희씨,뚝섬역,3.9,417,"서울 성동구 서울숲4길 12-22 1, 2층",37.5470443,127.0419176
본지르르 성수점,뚝섬역,4.6,426,"서울 성동구 광나루로4가길 13 지하1층, 1-2층",37.5493455,127.054661
피킹플레져,뚝섬역,4.2,152,서울 성동구 왕십리로14길 19-7 1층,37.5488377,127.0459889
로우키커피 헤이그라운드점,뚝섬역,4.1,122,서울 성동구 뚝섬로1나길 5 1층,37.544442,127.0477666
스타벅스 서울숲역,뚝섬역,3.6,120,서울 성동구 왕십리로 50 메가박스 스퀘어 1층,37.5478795,127.0429932
201호,뚝섬역,3.3,1826,서울 성동구 상원1길 35-14 2층 201호,37.5463215,127.0471507
올드타운,뚝섬역,4.7,32,서울 성동구 성수일로10가길 4 1층,37.5479966,127.0519594
클래식 해례커피,뚝섬역,4.1,322,서울 성동구 연무장길 28-20 1층,37.5428516,127.0522379
따우전드 성수점,뚝섬역,3.8,319,서울 성동구 연무장1길 7 1층,37.5445381,127.0505583
단일서울,뚝섬역,4.0,245,서울 성동구 왕십리로 66-33 1층,37.5430007,127.0454699
비도커피,뚝섬역,4.4,238,서울 성동구 왕십리로4길 24-7 2층,37.5468255,127.0466479
아뜰리에8,뚝섬역,4.7,131,"서울 성동구 왕십리로16길 13-1 아뜰리에8 빌딩 1,2층",37.550616,127.0456321
라카페갤러리,서촌,4.7,322,서울 종로구 자하문로10길 28 1층,37.5792927,126.9730284
나무사이로,서촌,4.1,455,서울 종로구 사직로8길 21 1층,37.5746678,126.9709706
스태픽스,서촌,3.3,1194,서울 종로구 사직로9길 22 1층 102호,37.5776587,126.9678039
애즈라이크,서촌,3.9,495,서울 종로구 효자로7길 23 1층,37.5784234,126.9733336
아키비스트,서촌,3.9,768,서울 종로구 효자로13길 52 1층,37.5822158,126.9726772
대오서점,서촌,2.9,91,서울 종로구 자하문로7길 55,37.5797341,126.9693256
인텔리젠시아 커피 서촌,서촌,3.1,423,서울 종로구 자하문로 34 1층,37.5790884,126.9717598
더마틴,서촌,3.9,364,서울 종로구 자하문로 54-1 1층,37.5809502,126.9714965
대충유원지 인왕산,서촌,3.7,374,서울 종로구 필운대로 46 무목적빌딩 4층,37.5800431,126.9688155
테라로사 광화문점,서촌,4.0,355,서울 종로구 종로1길 50 더케이트윈타워 B동 1층,37.574708,126.979549
코피티암커피 경복궁점,서촌,3.5,147,서울 종로구 자하문로4길 7,37.5774028,126.9726376
사직커피,서촌,4.5,173,"서울 종로구 사직로 49-4 1, 2층",37.5738163,126.9650656
내자상회,서촌,4.0,424,서울 종로구 사직로10길 3 1층,37.5757892,126.9704987
포비 광화문점,서촌,4.3,874,서울 종로구 종로3길 17 광화문D타워 1층 21호,37.5709867,126.97892
통의동단팥,서촌,4.4,185,서울 종로구 자하문로 20-1,37.5779575,126.9722402
이도림 블로트커피X베이크,서촌,4.8,500,서울 종로구 자하문로 43 1층,37.5799361,126.971078
eert 경복궁점,서촌,3.2,20,서울 종로구 사직로 127 1~3층,37.5760499,126.9730692
온그라운드 지상소,서촌,3.2,260,서울 종로구 자하문로10길 23 1층,37.5795215,126.9727876
포비브라이트 광화문점,서촌,4.1,306,서울 종로구 새문안로 76 콘코디언빌딩 1층,37.5697569,126.973165
커피스트,서촌,4.3,225,서울 종로구 경희궁길 39 1층,37.5727926,126.9694194
헤르만의정원,서촌,3.8,276,서울 종로구 자하문로7길 62,37.5800487,126.969333
커피원,서촌,4.5,391,서울 종로구 새문안로3길 12 신문로빌딩 지하 1층,37.5713397,126.9729421
mk2,서촌,3.4,401,서울 종로구 자하문로10길 17,37.5795086,126.9725167
통인스윗,서촌,3.6,254,서울 종로구 자하문로7길 50,37.5796417,126.9696363
카페 포르트,서촌,4.1,14,서울 종로구 자하문로10길 7 1층,37.5796218,126.9719007
스타벅스 경복궁역점,서촌,3.7,85,서울 종로구 자하문로4길 6 1층,37.5771847,126.9726176
세이지핀치,서촌,4.3,378,서울 종로구 필운대로1길 8 1층,37.5774729,126.9689587
오쁘띠베르,서촌,4.1,358,서울 종로구 자하문로 47-1,37.5802623,126.9709947
베어카페,서촌,3.7,267,서울 종로구 자하문로24길 24,37.5829054,126.9711115
라파리나,서촌,4.1,1598,서울 종로구 자하문로 44 청민 1층,37.5799725,126.9715532
블루보틀 삼청 카페,서촌,3.5,859,서울 종로구 북촌로5길 76 1~3층,37.5800995,126.9808429
스타벅스 정부서울청사R점,서촌,4.2,83,서울 종로구 새문안로5가길 28 광화문플래티넘 1층,37.5744107,126.9735709
사직동그가게,서촌,4.4,197,서울 종로구 사직로9길 18,37.577135,126.9678265
리제로 서울,서촌,3.3,192,서울 종로구 경희궁3길 3-5 3층,37.5729392,126.9680715
뉴라인건축사사무소,서촌,4.6,45,"서울 종로구 필운대로 35 1, 2층",37.5791238,126.968652
플랫커피,서촌,3.5,87,서울 종로구 자하문로 14-1 1~3층,37.5774917,126.9724111
에디션덴마크,서촌,4.6,51,서울 종로구 자하문로9길 24 1층,37.579581,126.9697597
베란다,서촌,4.5,697,서울 종로구 사직로10길 9-4,37.5754089,126.9705526
일일호일,서촌,4.8,60,서울 종로구 자하문로 52,37.5806424,126.9714224
스타벅스 스페이스본점,서촌,3.4,29,"서울 종로구 사직로8길 4 201동 109,110호",37.5744169,126.9688811
어니언 안국,서촌,3.5,1207,서울 종로구 계동길 5,37.5776235,126.9865541
스모어마켓 픽사하우스,서촌,4.3,359,"서울 종로구 율곡로3길 74-3 1,2층",37.5790204,126.982394
놋그릇가지런히,서촌,4.2,55,서울 종로구 자하문로13길 3,37.5799691,126.9709288
커피한잔,서촌,4.6,219,서울 종로구 사직로9길 16-1 1충,37.5770494,126.9679025
스펙터,서촌,,325,서울 종로구 필운대로6길 23-1 1층,37.5802671,126.9696713
널담은공간,서촌,3.5,858,서울 종로구 삼청로 24 1층,37.5780502,126.9798327
미라보쇼콜라,서촌,4.6,172,서울 종로구 자하문로5길 6 1층,37.577794,126.9714176
통인스윗카페,서촌,3.7,180,서울 종로구 자하문로7길 10,37.5783821,126.971187
사라브(SARAB),서촌,4.8,56,서울 종로구 필운대로1길 16-1 1층,37.5777697,126.9685284
팀홀튼 광화문 케이트윈타워점,서촌,3.6,51,서울 종로구 종로1길 50 B동 1층,37.5747575,126.9792977
스타벅스 광화문점,서촌,3.4,213,서울 종로구 세종대로 167 현대해상본사사옥 별관내,37.570934,126.9761231
여기인가,서촌,4.1,121,서울 종로구 자하문로7길 24-4 1층,37.5788409,126.9709066
호아드카페&갤러리,서촌,3.5,152,서울 종로구 율곡로1길 54-3,37.5781949,126.9811224
서울서둘째로잘하는집,서촌,4.1,412,서울 종로구 삼청로 122-1,37.5862441,126.9818509
종로살롱,서촌,3.9,185,서울 종로구 자하문로2길 20,37.5763648,126.9737909
더숲초소책방,서촌,3.5,1042,서울 종로구 인왕산로 172,37.5845052,126.9638774
스타벅스 적선점,서촌,4.0,50,서울 종로구 새문안로5길 55 노스게이트빌딩 1층,37.5750907,126.9739521
카페 보안,서촌,4.3,46,서울 종로구 효자로 33 1층,37.57904389999999,126.9736188
카페이마,서촌,3.5,378,서울 종로구 세종대로 152 일민미술관 1층,37.5697944,126.9776649
파스텔커피웍스 서촌점,서촌,4.5,118,서울 종로구 필운대로3길 2 1층,37.5787354,126.9687878
크레페보이,서촌,4.9,137,서울 종로구 자하문로13길 4-7 1층,37.5803761,126.9707721
쏘리에스프레소바,서촌,4.7,581,서울 종로구 자하문로2길 12 1층,37.576482,126.973348
카페자스 광화문점,서촌,4.3,16,서울 종로구 새문안로5가길 3-1 영진빌딩 101호,37.572479,126.974269
부트카페 서촌,서촌,3.0,199,서울 종로구 자하문로 46,37.580093,126.9715345
오설록티하우스 현대미술관점,서촌,4.4,229,서울 종로구 삼청로 30 1층,37.5795117,126.9805862
모브,서촌,4.4,130,서울 종로구 사직로8길 7,37.5752514,126.96976
몹시,서촌,4.7,110,서울 종로구 자하문로 36,37.5792663,126.9717356
와플샵 경복궁점,서촌,4.7,49,서울 종로구 자하문로 8 1층,37.5768539,126.9726128
도트블랭킷,서촌,4.2,626,서울 종로구 윤보선길 22 1층,37.5770255,126.9841015
헤이븐,서촌,4.5,110,서울 종로구 자하문로 52-1,37.58076510000001,126.971404
팔발라 삼청본점,서촌,3.0,464,서울 종로구 삼청로 61,37.5813375,126.9806076
안다미로 팬케이크 서촌점,서촌,4.4,77,서울 종로구 필운대로5가길 2 1층,37.579475,126.9685767
리셉션,서촌,3.9,124,서울 종로구 자하문로 70 효자빌딩 1층,37.5822716,126.9710343
호랑이 경복궁점,서촌,4.5,50,서울 종로구 자하문로1길 50 1층,37.5769254,126.9697077
음악의숲,서촌,4.8,12,서울 종로구 자하문로 39,37.5795687,126.9711006
카페413프로젝트 역삼점,강남역,4.2,506,서울 강남구 논현로97길 19-11 1층,37.5023397,127.0344731
정월,강남역,3.4,647,서울 강남구 강남대로102길 46 1층,37.5036709,127.0285951
키이스케이프 강남점,강남역,4.0,294,서울 강남구 강남대로96길 17 6층,37.5001389,127.0283996
장꼬방,강남역,4.4,425,서울 서초구 강남대로61길 27 1층,37.4983303,127.0237836
알베르,강남역,3.0,1014,서울 강남구 강남대로102길 34,37.5030677,127.0280792
썸띵어바웃커피,강남역,3.6,1399,서울 강남구 강남대로102길 30 1-3층,37.5028232,127.0278067
룸카페 바니,강남역,3.0,131,서울 강남구 강남대로96길 12 지천빌딩 3층 301호,37.4997177,127.0279918
루프808,강남역,4.2,463,서울 강남구 강남대로 470 808타워 16층,37.5043512,127.0250471
블루보틀 역삼 카페,강남역,4.0,465,서울 강남구 테헤란로 129 강남N타워 1층,37.4997777,127.0324107
코드케이 강남점,강남역,3.7,52,서울 강남구 봉은사로2길 31 지하1층,37.5027041,127.0264143
스타벅스 몬테소리점,강남역,4.3,97,서울 서초구 강남대로 399 한국몬테소리 빌딩 1층,37.49827630000001,127.026863
고양이라좋은날,강남역,4.4,181,서울 강남구 강남대로98길 28 5층,37.5008756,127.0286725
공차 강남역점,강남역,3.2,29,서울 강남구 강남대로 지하 396 강남역지하쇼핑센터 지하1층 E-37호,37.497973,127.0277184
스타벅스 강남R점,강남역,4.2,303,서울 강남구 강남대로 390 미진프라자 1층 101호,37.4978461,127.0286372
가배도 신논현점,강남역,3.4,605,서울 강남구 강남대로110길 13 호림빌딩 2-3층,37.5040964,127.0258517
빌리엔젤 강남역점,강남역,2.9,179,서울 강남구 테헤란로1길 48 강남ELS빌딩 1층,37.5014631,127.0269828
커피빈 강남역세계빌딩점,강남역,4.2,22,서울 서초구 서초대로73길 12 1층,37.4985905,127.0258499
브라운홀릭,강남역,3.3,211,서울 강남구 강남대로98길 25 1층,37.5010975,127.0286613
어퍼앤언더,강남역,3.0,1287,"서울 강남구 강남대로102길 28 1, 2, 지하 1층",37.5027307,127.0277254
평화다방 강남역점,강남역,2.6,444,서울 강남구 강남대로94길 10 K스퀘어 2층,37.4991618,127.0281867
할리스 강남역점,강남역,3.1,139,서울 강남구 강남대로 402 시계탑빌딩 1층,37.498768,127.0277985
비트포비아 강남던전점,강남역,3.7,741,서울 강남구 강남대로84길 33 대우디오빌플러스 지하1층 111호,37.497514,127.0310602
타짜도르 강남점,강남역,3.5,192,서울 서초구 서초대로77길 61 1층,37.5024648,127.0236722
쉼스토리,강남역,4.4,92,서울 강남구 역삼로3길 17 혜진빌딩 3층,37.4946226,127.031054
스타벅스 강남대로점,강남역,4.5,86,서울 강남구 강남대로 456 한석타워 2층 1-2호,37.5030912,127.0255689
팀홀튼 신논현역점,강남역,3.1,1203,서울 강남구 강남대로 476 1층,37.5048971,127.0247797
커피빈 강남역먹자골목점,강남역,3.8,51,서울 강남구 테헤란로1길 29 1-3층,37.5001427,127.0273065
겟썸커피 다운스테어즈,강남역,3.3,321,서울 강남구 봉은사로6길 30 지하1층,37.5030831,127.0272515
크리에잇쿠키 역삼점,강남역,4.2,130,서울 강남구 테헤란로25길 36 2층,37.5029516,127.0351193
그레이스케일커피,강남역,3.5,96,서울 강남구 강남대로102길 38,37.5032534,127.0282395
빽다방 강남역월드점,강남역,2.8,29,서울 서초구 서초대로77길 37 월드상가 1층 104호,37.5009881,127.02509
키이스케이프 강남 더오름,강남역,4.3,113,서울 강남구 테헤란로6길 30 지하1층,37.4966048,127.0311042
까치화방 강남역점,강남역,,206,서울 강남구 봉은사로4길 23 1층,37.50328140000001,127.0267174
폴바셋 강남삼성타운점,강남역,4.1,92,서울 서초구 서초대로78길 22 홍우제2빌딩 1층,37.49582789999999,127.0273532
더달달,강남역,4.0,939,"서울 강남구 강남대로102길 38-6 1층, 2층",37.5031645,127.0284264
스타벅스 강남서초초교점,강남역,3.4,112,"서울 서초구 서초대로77길 27 유빌딩 1,2층",37.5000702,127.0254235
트리오드,강남역,,1124,서울 강남구 강남대로94길 28 유니언타운 L층,37.4996032,127.029589
투썸플레이스 역삼성홍타워점,강남역,3.0,72,서울 강남구 테헤란로 138 1층,37.49964240000001,127.0342691
할리스 강남역2점,강남역,3.8,64,서울 강남구 강남대로 422 1층,37.5003747,127.0269158
가배도 강남역점,강남역,3.8,172,서울 서초구 강남대로 405 통영빌딩 1층,37.4987358,127.0266779
소과당,강남역,3.0,64,서울 강남구 강남대로96길 12 A동 2층,37.4997177,127.0279918
커피빈 강남역12번출구점,강남역,4.3,58,서울 강남구 테헤란로 111 대건빌딩 2층,37.4987197,127.0293613
스템커피 강남점,강남역,2.5,277,서울 서초구 서초대로77길 5 1-2층,37.4983568,127.0264406
스크렘,강남역,3.5,397,서울 강남구 봉은사로4길 17,37.5037384,127.0264887
마이디주스 강남점,강남역,4.3,36,서울 강남구 테헤란로5길 31 금성빌딩 1층,37.50069999999999,127.0287234
스타벅스 서초우성사거리점,강남역,3.7,66,서울 서초구 강남대로 343,37.4935087,127.0292068
넥스트에디션 강남5호점,강남역,2.7,194,서울 강남구 강남대로94길 11 지하1층,37.49953410000001,127.0282641
슬로우커피,강남역,4.7,630,서울 강남구 역삼로 136 신명빌딩 1층,37.4942208,127.0344999
tiny,강남역,3.2,14,서울 강남구 강남대로106길 19 디앤비빌딩,37.5031689,127.0271066
사운즈커피 프리미어 강남,강남역,4.1,77,서울 강남구 강남대로 358 강남358타워 1층,37.4950409,127.0297961
바나프레소 강남역점,강남역,3.9,67,서울 강남구 테헤란로 113 목화밀라트 1층,37.4989741,127.0295348
스타벅스 강남비젼타워점,강남역,3.9,90,서울 강남구 테헤란로2길 27 패스트파이브빌딩 1층,37.4965546,127.0296354
스타벅스 강남오거리점,강남역,3.8,93,서울 강남구 봉은사로2길 39 1~3층,37.5020948,127.0266668
투썸플레이스 강남대륭타워점,강남역,2.5,82,서울 강남구 강남대로 362 1층,37.4953381,127.0295533
스타벅스 강남역우송빌딩점,강남역,4.1,40,서울 서초구 서초대로73길 7,37.4981412,127.0253117
투썸플레이스 강남역중앙점,강남역,2.0,66,서울 강남구 테헤란로1길 16 삼원빌딩 2층,37.499438,127.0279387
스타벅스 아크플레이스점,강남역,4.1,63,서울 강남구 테헤란로 142 아크플레이스 1층,37.4997419,127.0348105
셀렉티드마롱,강남역,3.3,389,서울 강남구 테헤란로4길 37 1층,37.4961876,127.0308785
강남타로매니아,강남역,3.6,23,서울 강남구 테헤란로1길 30 용빌딩 3층,37.5002941,127.027525
스타벅스 국기원사거리점,강남역,4.3,73,서울 강남구 테헤란로 125 디에이성형외과빌딩 2층,37.499615,127.0316758
세븐클루스 강남1호점,강남역,1.8,382,서울 강남구 테헤란로2길 8 지하 1층,37.4976012,127.0287219
집사의하루 강남점,강남역,4.8,349,서울 강남구 봉은사로4길 32 3층,37.5027789,127.0266567
빽다방 신논현역점,강남역,3.8,53,서울 서초구 사평대로 367 수암빌딩 1층 101호,37.5043751,127.0231026
스타벅스 강남삼성타운점,강남역,3.7,94,서울 서초구 서초대로78길 24 1~2층,37.495627,127.0277213
공차 교보타워점,강남역,3.0,35,서울 서초구 서초대로77길 62 아이파크에비뉴 L1층 103~104호,37.5027479,127.023912
투썸플레이스 강남KI타워점,강남역,3.6,93,서울 서초구 강남대로69길 8 2층,37.5018395,127.0246454
로얄마카롱,강남역,4.4,102,서울 강남구 테헤란로25길 26 상준빌딩 3층,37.5022715,127.0354796
제로월드 강남점,강남역,4.4,1369,서울 서초구 서초대로73길 40,37.5009346,127.0245823
싸인이스케이프 강남시티점,강남역,5.0,314,서울 강남구 강남대로94길 67 도연빌딩 지하1층,37.50076809999999,127.0325425
클로리스 역삼GFC점,강남역,4.2,191,서울 강남구 테헤란로 152 강남파이낸스센터 지하1층,37.5001478,127.0362897
강남커피,강남역,3.1,26,서울 강남구 강남대로102길 13-5,37.5022982,127.0267351
헤이티 강남점,강남역,3.7,18,서울 강남구 강남대로 438 2층 210호,37.501652,127.0263751
커피빈 삼성전자강남사옥점,강남역,5.0,6,서울 서초구 서초대로74길 11 삼성전자빌딩 지하2층 208호,37.4966085,127.0269023
필메이트 강남점,강남역,3.0,262,서울 강남구 테헤란로1길 28 1~3층,37.5003324,127.0276548
더노벰버라운지 강남역KG타워점,강남역,,30,서울 강남구 테헤란로5길 7 KG타워 1층,37.4992638,127.0292461
더하우스1932,서울역,,362,서울 중구 만리재로35길 7,37.5555315,126.967393
팀홀튼 숭례문그랜드센트럴점,서울역,3.8,353,서울 중구 세종대로 14 L층,37.557877,126.9743793
스타벅스 서울역동자동점,서울역,4.0,44,서울 용산구 한강대로 372 KDB생명타워 지하1층,37.5515841,126.9728797
엘카페커피로스터스,서울역,4.2,193,서울 용산구 후암로 68 지하1층 1호,37.5519553,126.9770343
옵튼,서울역,4.5,165,서울 중구 만리재로 205-1 1층,37.5559077,126.9680524
포컬포인트,서울역,,1125,서울 용산구 청파로 387,37.5541996,126.9687561
커피앤시가렛,서울역,3.9,1172,서울 중구 서소문로 116 유원빌딩 17층 1706호,37.5626639,126.9740587
센터커피 서울역점,서울역,4.4,58,서울 중구 한강대로 405 4층,37.5562878,126.9694414
홍철책빵,서울역,3.1,537,서울 용산구 한강대로102길 57,37.5493986,126.9752444
스타벅스 서울역사점,서울역,3.8,112,서울 중구 한강대로 405 101호,37.5562878,126.9694414
커피스니퍼,서울역,4.1,262,서울 중구 세종대로16길 27 남양빌딩 1층 102호,37.5633771,126.978439
스타벅스 서울역서부점,서울역,4.0,43,서울 용산구 만리재로 202 1층,37.5549352,126.9684545
커피빈 남대문점,서울역,4.6,21,서울 중구 후암로 110 서울시티타워 1층,37.5542316,126.9740458
카페피크닉,서울역,3.7,195,서울 중구 퇴계로6가길 30 1층 102호,37.5569642,126.9781391
탐앤탐스 서울역점,서울역,2.8,5,서울 용산구 후암로 107 201호,37.5534081,126.9735517
커피빈 서울스퀘어점,서울역,3.7,18,서울 중구 한강대로 416 지하1층,37.5555215,126.9738608
스타벅스 숭례문점,서울역,3.7,35,서울 중구 세종대로 17 와이즈타워 1층,37.5587401,126.9731482
메가MGC커피 서울역점,서울역,3.3,46,서울 용산구 한강대로 403 근생빌딩 1층,37.5543311,126.9722088
스타벅스 연세세브란스점,서울역,4.6,32,서울 중구 통일로 10,37.5571284,126.9737732
소월길그집,서울역,4.7,51,서울 용산구 소월로2길 29,37.5537352,126.9767014
파스쿠찌 트윈시티남산점,서울역,4.4,20,서울 용산구 한강대로 366 1층,37.5508614,126.9727844
니트커피,서울역,5.0,60,서울 중구 소월로2길 30 남산트라팰리스 1층 107호,37.5538322,126.9757901
컴포즈커피 서울역부양빌딩점,서울역,3.7,8,서울 용산구 한강대로 397 부양빌딩 1층,37.5538133,126.9723478
스타벅스 남산단암점,서울역,3.6,27,서울 중구 소월로 10 단암빌딩,37.5585205,126.9754518
계단집,서울역,4.4,350,서울 중구 퇴계로6길 35,37.5569212,126.9792145
파스쿠찌 센트로서울점,서울역,4.2,143,서울 중구 한강대로 416 서울스퀘어 1층,37.5554652,126.9737482
빌라앰버시,서울역,4.4,167,서울 용산구 만리재로 198 1층,37.5548797,126.9680572
카페후암동,서울역,4.5,82,서울 용산구 후암로 33 1층,37.5487283,126.9775112
르풀,서울역,3.3,401,서울 중구 정동길 33 1층,37.5662178,126.9721631
커피앤시가렛 BCity점,서울역,3.8,162,서울 용산구 소월로2길 35 1층,37.5534449,126.9766985
로드샌드위치 서울역점,서울역,4.0,50,서울 중구 중림로 49 실로암빌딩 1층 101호,37.5577318,126.9686026
이디야커피 동자동점,서울역,3.0,11,서울 용산구 후암로 93 1층,37.5533423,126.9751213
고망고 숭례문점,서울역,5.0,22,서울 중구 세종대로 27,37.5592906,126.9741102
스타벅스 충정타워점,서울역,4.4,48,서울 서대문구 서소문로 21 충정타워 1층,37.5598507,126.964065
연남방앗간 서울역점,서울역,3.1,182,서울 중구 통일로 1,37.5559588,126.9715835
드로우 에스프레소바,서울역,4.8,348,서울 중구 청파로 453 1층,37.5598282,126.9679185
투썸플레이스 중구YTN점,서울역,4.5,24,서울 중구 세종대로5길 22 1층,37.5589838,126.972896
상향선,서울역,4.4,787,서울 용산구 청파로85길 33 1층,37.5524474,126.9672031
아프리쿠스,서울역,4.7,264,서울 용산구 청파로93길 35 1층,37.5538528,126.9671301
에슬로우커피 서울역점,서울역,3.8,16,서울 용산구 한강대로 372 센트레빌아스테리움 C동 1층 107호,37.5513303,126.9735251
김동훈커피,서울역,4.0,45,서울 중구 퇴계로 49 2층,37.5584387,126.9777966
K-SPOT 수국전망대 카페,서울역,4.2,125,서울 중구 남대문로5가 84-15 2층,37.5572789,126.9734969
스타벅스 대한상공회의소R점,서울역,4.3,81,서울 중구 세종대로 39,37.5605524,126.9738586
후암동단팥죽팥빙수 행복이가득한집,서울역,4.6,99,서울 용산구 후암로 21-2 1층,37.5477281,126.9777961
다락,서울역,4.1,44,서울 중구 덕수궁길 15 서울특별시청 서소문청사 13층,37.5643408,126.9756125
퀸즈베이커리카페,서울역,3.0,89,서울 중구 남대문로 30,37.56079390000001,126.9790435
투썸플레이스 CJ더센터점,서울역,5.0,4,서울 중구 소월로2길 12 제일빌딩 2층,37.5545389,126.9759165
매머드익스프레스 세종대로점,서울역,4.5,9,서울 중구 세종대로 23,37.5590349,126.9738246
투썸플레이스 용산트윈시티점,서울역,3.1,14,서울 용산구 한강대로 366 트윈시티남산 오피스동 1층,37.5507383,126.9727203
덕수궁 리에제와플,서울역,3.4,1361,서울 중구 덕수궁길 5 1층,37.5647918,126.9764535
베르시,서울역,4.8,129,서울 용산구 만리재로 172-1 1층,37.55378899999999,126.9655547
투썸플레이스 서소문점,서울역,4.0,34,서울 중구 서소문로 135 연호빌딩 1층,37.5640071,126.9758269
일루소 커피,서울역,5.0,25,서울 중구 소월로 39-1 1층,37.5562996,126.9769743
공차 서울역점,서울역,2.5,54,서울 중구 한강대로 405 서울역사 지하1층,37.5562878,126.9694414
마뫼,서울역,,140,서울 중구 소파로 41 1층,37.5551714,126.9813491
라이크디즈1601,서울역,4.6,401,서울 중구 서소문로 116 유원빌딩 16층 1601호,37.5626639,126.9740587
도깨비코티지,서울역,4.0,198,서울 용산구 소월로2나길 6-1 1층,37.5532579,126.9770758
메가MGC커피 회현SK리더스뷰점,서울역,3.0,13,서울 중구 퇴계로 72 SK리더뷰남산아파트 상가동 1층 101호,37.5591263,126.9806365
바나프레소 남대문점,서울역,3.4,22,서울 중구 세종대로 15 1층,37.5583478,126.973244
골드버튼커피,서울역,3.8,174,서울 용산구 한강대로80길 5 1층,37.54267919999999,126.9731829
커피빌라,서울역,3.1,17,서울 중구 청파로 445,37.5591562,126.9685114
할리스 충정래미안점,서울역,3.2,13,서울 중구 중림로 21 더플레이스충정로 1층,37.5589283,126.9659465
컴포즈커피 후암시장점,서울역,5.0,2,서울 용산구 한강대로104길 62 1층,37.5501212,126.975589
남대문커피,서울역,4.5,29,서울 중구 남대문로 10,37.5605234,126.9770263
스타벅스 숭례문SG타워점,서울역,4.4,23,서울 중구 세종대로 14,37.557877,126.9743793
아크바 중림점,서울역,3.5,18,서울 중구 중림로7길 10,37.55836670000001,126.967508
커피빈 순화동라마다호텔점,서울역,5.0,3,서울 중구 칠패로 27 로비 1층 151호,37.5601765,126.9720654
카페드콘서트 남대문점,서울역,3.8,14,서울 중구 세종대로 17 와이즈타워 1층,37.5587401,126.9731482
스타벅스 퍼시픽타워점,서울역,3.0,25,서울 중구 세종대로9길 41 1층,37.5613397,126.9730201
메가MGC커피 서울역한라비발디점,서울역,4.1,11,서울 중구 만리재로 177 서울역한라비발디센트럴 상가동 지하2층 108호,37.55430399999999,126.9659934
시엠프레꼬모도밍고,서울역,,86,서울 용산구 후암로34길 11,37.5513039,126.9777903
스타벅스 순화동더샵점,서울역,4.8,20,서울 중구 칠패로 27 포스코더# A동 102호,37.5601765,126.9720654
뚜르드카페 티마크그랜드호텔 명동지점,서울역,1.0,1,서울 중구 퇴계로 52 1층,37.5584538,126.9786466
더스팟 패뷸러스,서울역,3.9,1993,"서울 중구 명동2길 22 1,2층",37.56222229999999,126.9824597
매머드커피 서울역점,서울역,4.2,10,서울 용산구 후암로 101 1층,37.5534069,126.9743428
르몽블랑,해방촌,4.0,337,서울 용산구 신흥로 99-4 1층,37.5448885,126.9848528
오랑오랑,해방촌,3.7,187,"서울 용산구 소월로20길 26-14 1,2층",37.5450844,126.9850594
타자기,해방촌,4.2,155,서울 용산구 신흥로 97-5 2층,37.5452323,126.9848843
눕카페&피자펍,해방촌,4.1,305,서울 용산구 신흥로26길 20 해방타워 5층,37.545082,126.9838941
오잇(OEAT),해방촌,4.2,536,서울 용산구 신흥로 95 건물전체,37.5454935,126.9850874
콤포타블 남산,해방촌,4.3,744,서울 용산구 두텁바위로60길 49 대원정사 별관 4층,37.5489161,126.9833721
업스탠딩커피,해방촌,4.1,288,"서울 용산구 신흥로 99-11 1,2층",37.5449265,126.9849717
S.caf,해방촌,3.4,175,서울 용산구 소월로26길 12 아르테소월 3층,37.54544,126.9870497
쉘터 해방촌,해방촌,3.5,190,서울 용산구 신흥로11길 49-12 3층,37.544656,126.9855106
르카페,해방촌,4.4,60,서울 용산구 신흥로 33 1층,37.5415301,126.9870453
론드리프로젝트,해방촌,4.5,131,서울 용산구 신흥로 78 1층,37.5450442,126.9864935
더로열푸드앤드링크,해방촌,,234,서울 용산구 신흥로20길 37 1층,37.5472047,126.983946
달빛흘러간자리,해방촌,4.5,185,"서울 용산구 신흥로 95-5 1, 2층",37.5454078,126.985084
빌라커피,해방촌,3.7,299,서울 용산구 신흥로 101-9 2층,37.5446953,126.9849052
카페남산아래,해방촌,4.5,98,"서울 용산구 신흥로 94-1 1,2층",37.5456755,126.9849439
크레마노 해방촌점,해방촌,4.8,39,서울 용산구 소월로20길 28,37.5452749,126.9852049
토터스,해방촌,3.5,302,"서울 용산구 신흥로 81 1,2층",37.5453477,126.9859768
어반클리프 카페,해방촌,,199,"서울 용산구 신흥로20길 43 1, 2, 3층",37.5473948,126.9840487
투스키,해방촌,4.4,34,서울 용산구 소월로20길 55 1동 1층,37.5441451,126.9845804
꾸에바마테라,해방촌,4.2,104,서울 용산구 소월로20길 28-1 1층,37.5452539,126.9851972
Journey,해방촌,4.8,12,서울 용산구 신흥로 59 1층,37.5437097,126.987255
널담은공간 해방촌점,해방촌,2.7,18,서울 용산구 신흥로15길 18-12,37.5446013,126.9854254
올드빅,해방촌,3.7,190,서울 용산구 신흥로 95-13 1-4층,37.545179,126.9850028
해방공원(HB01),해방촌,4.4,32,"서울 용산구 신흥로 95-7 1-3층,루프탑",37.54535509999999,126.98512
바운스,해방촌,5.0,10,서울 용산구 신흥로3길 3 1층,37.5411082,126.9867129
토스티데이즈(Toasty days),해방촌,4.8,311,서울 용산구 신흥로 97-6 1층,37.5451869,126.9848677
아크페브 해방촌,해방촌,3.3,24,서울 용산구 신흥로 62 1층,37.5438416,126.9874015
파운드마켓,해방촌,3.3,55,서울 용산구 신흥로14길 9,37.5438584,126.9877436
메이플하우스,해방촌,3.4,32,서울 용산구 신흥로11길 4 1층,37.5431282,126.9875425
방있음프로젝트팩토리,해방촌,5.0,3,서울 용산구 신흥로 98,37.5453555,126.9847547
오이스터,해방촌,4.2,32,서울 용산구 두텁바위로 108,37.548626,126.9823483
카페 콤포트,해방촌,4.1,13,서울 용산구 두텁바위로60길 45 4층,37.5493879,126.9833303
카페다포딜,해방촌,4.2,183,서울 용산구 신흥로22가길 25 1층,37.545921,126.9828734
프리잔테,해방촌,5.0,19,서울 용산구 두텁바위로 88 지하1층 B101호,37.5469005,126.9816059
카페무니,해방촌,,176,서울 용산구 신흥로20길 37,37.5472047,126.983946
루메니코,해방촌,4.4,12,"서울 용산구 소월로20길 50 1층, 지층",37.5445061,126.984731
마우카,해방촌,3.5,30,서울 용산구 신흥로20길 39,37.5473047,126.9839166
파르고,해방촌,3.8,32,서울 용산구 신흥로 44 1층 3호,37.5421851,126.9875148
카페 오이이,해방촌,4.8,47,서울 용산구 신흥로2길 78 1층,37.5432001,126.9881256
빽다방 해방촌오거리점,해방촌,5.0,6,서울 용산구 신흥로20길 1 1층,37.5458142,126.9850884
Pollux coffee,해방촌,3.9,25,서울 용산구 신흥로 40 1층,37.5419504,126.9874568
아뜰리에남산,해방촌,4.7,26,서울 용산구 신흥로7길 51-5 3층,37.5432784,126.9850528
마그마,해방촌,5.0,4,서울 용산구 신흥로 73 1층,37.5446551,126.9864929
메가MGC커피 해방촌오거리점,해방촌,3.3,6,서울 용산구 소월로20길 23 1층,37.5454442,126.9854519
어컵오브굳,해방촌,5.0,32,서울 용산구 소월로20길 36-1,37.5449102,126.9851548
ATEXPRESS 해방촌점,해방촌,3.5,4,서울 용산구 신흥로 89,37.5456762,126.9854495
펄치,해방촌,4.2,10,서울 용산구 신흥로 57,37.5435382,126.9873417
개방,해방촌,4.8,18,서울 용산구 신흥로 100 지하1층,37.5452309,126.9846829
달,해방촌,4.7,51,서울 용산구 신흥로 9 1층,37.5393173,126.9864487
순수박물관,해방촌,3.7,39,서울 용산구 신흥로3가길 55,37.54224079999999,126.9840315
잎차,해방촌,4.1,137,서울 용산구 신흥로 95-21 2층,37.5450201,126.9850067
사려니숲,해방촌,0.0,0,서울 용산구 소월로20길 64,37.5440115,126.9841968
인투고,해방촌,4.3,3,서울 용산구 신흥로 45,37.5425002,126.9873104
델리마이크,해방촌,5.0,20,서울 용산구 신흥로7길 58-1 1층,37.543714,126.9849963
언더그라운드,해방촌,5.0,13,서울 용산구 신흥로25길 10 지층,37.5443039,126.983428
포뮬라커피,해방촌,4.7,47,서울 용산구 신흥로 54 1층,37.5431004,126.9878326
HARU(하루),해방촌,3.0,9,서울 용산구 신흥로15길 20 1층 가호,37.5441272,126.9857073
이브,해방촌,4.9,10,서울 용산구 신흥로23길 2 1층,37.5446533,126.983544
오아시스해방촌,해방촌,4.4,40,서울 용산구 신흥로 62 1층,37.5438416,126.9874015
해방촌아름이,해방촌,,48,서울 용산구 두텁바위로40길 28-14 3층,37.5474891,126.9837868
베이킷,해방촌,,66,서울 용산구 신흥로22가길 23 1층 101호,37.54580929999999,126.9829958
단희,해방촌,5.0,6,서울 용산구 소월로20길 32-1,37.5450767,126.9851764
남산토랑,해방촌,,35,서울 용산구 신흥로15길 18-8 보다서울 1층 101호,37.5445325,126.9856437
29금,해방촌,5.0,2,서울 용산구 소월로20길 36-1,37.5449102,126.9851548
저스틴,해방촌,2.0,37,서울 용산구 신흥로5길 8 1층,37.5418945,126.986653
갤러리더스퀘어 용산점,해방촌,2.0,53,서울 용산구 신흥로 103-1 2층,37.54478460000001,126.9844845
하테바,해방촌,5.0,1,서울 용산구 소월로20길 60 1층,37.544106,126.9843045
굿니스클럽,해방촌,4.9,12,서울 용산구 신흥로 99-9 지하1층,37.5449709,126.984914
카페1-88,해방촌,4.5,2,서울 용산구 신흥로 99-15,37.5448762,126.9850475
goodnessclub,해방촌,5.0,5,서울 용산구 신흥로 99-9 지층,37.5449709,126.984914
해방촌키토네,해방촌,0.0,0,서울 용산구 신흥로 77-1,37.5450312,126.9862685
카페아이몽,해방촌,5.0,5,서울 용산구 신흥로 97-4 2층,37.5452696,126.9848999
카페우디,해방촌,0.0,4,서울 용산구 신흥로 71-1,37.5445878,126.9865707
버튼크럼즈,해방촌,5.0,6,서울 용산구 신흥로14길 9 지하층,37.5438584,126.9877436
더월,해방촌,4.7,9,서울 용산구 신흥로3가길 55,37.54224079999999,126.9840315
에이머그,수유역,4.5,29,서울 강북구 노해로 21 벤처월드 1층,37.6375465,127.0226311
무너미,수유역,,345,서울 강북구 노해로8가길 40 1층,37.6398044,127.0236096
큐브이스케이프 수유점,수유역,4.3,69,서울 강북구 도봉로87길 11 2층,37.638337,127.0248677
투썸플레이스 수유사거리점,수유역,4.2,51,서울 강북구 도봉로 295 스타타워 1층,37.6349281,127.0229369
컴포즈커피 수유역점,수유역,5.0,6,서울 강북구 오패산로 417 1층,37.6376162,127.0258364
카페다담,수유역,4.4,10,서울 강북구 덕릉로 64 2층,37.6342809,127.0208048
커피빈 강북구청앞점,수유역,3.8,29,서울 강북구 한천로139길 25 1-2층,37.6390716,127.025728
엔제리너스 수유역점,수유역,2.8,136,서울 강북구 도봉로 333,37.6378691,127.0250254
모비딕 수유점,수유역,4.5,45,서울 강북구 도봉로 350 삼주빌딩 4층,37.6385766,127.0266946
노르웨이안우드,수유역,,260,"서울 강북구 도봉로87길 32-6 1,2층",37.6392082,127.0243418
스타벅스 수유역점,수유역,3.7,103,서울 강북구 도봉로 342,37.638045,127.026416
스타벅스 강북구청사거리점,수유역,4.2,90,서울 강북구 도봉로 365,37.6400318,127.027361
빈세앙,수유역,4.4,36,서울 강북구 오패산로 405 1층,37.63693620000001,127.0269001
설빙 서울강북수유역점,수유역,3.8,27,서울 강북구 오패산로 417 2-3층,37.6376162,127.0258364
백억커피 수유점,수유역,5.0,13,서울 강북구 도봉로 368 1층,37.6398538,127.0280416
양승진커피,수유역,3.9,18,서울 강북구 한천로129길 18 1층,37.6372359,127.0292168
선데이베이글,수유역,3.4,252,서울 강북구 한천로143길 12 1층,37.6408154,127.024613
할리스 수유사거리점,수유역,,38,서울 강북구 도봉로82길 11 2~4층,37.6358906,127.0243904
헬로우수유,수유역,4.3,39,서울 강북구 도봉로85길 14 1층,37.638085,127.0246075
디저트39 수유역점,수유역,3.9,46,서울 강북구 한천로140길 14 1층,37.641689,127.0276324
카페 멘덜리,수유역,4.8,107,서울 강북구 수유로 18 1층,37.63242960000001,127.0188574
훌리데이,수유역,5.0,26,서울 강북구 수유로 56 1층,37.6355581,127.0199752
낙과유수 본점,수유역,5.0,6,서울 강북구 도봉로101길 59 1층,37.6443495,127.0277505
칩멍크,수유역,4.8,114,서울 강북구 삼양로98길 7 1층,37.6387399,127.0176157
민박컾,수유역,5.0,7,서울 강북구 노해로14길 24 메인하우스 1층,37.6397086,127.0241346
메가MGC커피 수유역점,수유역,3.6,19,서울 강북구 오패산로 413 1층,37.637438,127.0261563
라라브레드 수유점,수유역,4.9,195,서울 강북구 노해로14길 8 1층,37.6394328,127.0231162
스타벅스 수유역5번출구점,수유역,4.2,29,서울 강북구 도봉로 315,37.6371317,127.0233498
빽다방 수유사거리점,수유역,5.0,4,서울 강북구 수유로 84 1층,37.6361002,127.022838
어니언 미아,수유역,4.6,349,서울 강북구 솔매로50길 55 서울강북우체국 1층,37.6240844,127.028204
투썸플레이스 강북구청점,수유역,3.1,62,서울 강북구 한천로 1035 1층,37.6397849,127.0265811
보사노바커피로스터스 수유역점,수유역,5.0,105,서울 강북구 도봉로85길 8 1층,37.6378354,127.0246699
레드포션,수유역,3.9,151,"서울 강북구 노해로8가길 10 1,2층",37.6385196,127.0237423
메가MGC커피 강북시장점,수유역,3.6,22,서울 강북구 한천로 1059-1 1층,37.6412291,127.024741
빽다방 수유역점,수유역,3.8,14,서울 강북구 도봉로 352 효성네오인텔리안 1층 103호,37.6386744,127.0270394
카페두두,수유역,3.5,22,서울 강북구 도봉로98길 56,37.640847,127.0327599
티틸,수유역,4.5,205,서울 강북구 노해로 42 2층,37.6392173,127.0229406
메가MGC커피 강북북부시장점,수유역,4.0,6,서울 강북구 한천로 981 1층,37.6366524,127.0315721
경스커피 수유본점,수유역,3.8,41,서울 강북구 한천로131길 23 1층,37.6382628,127.0272273
카페백야,수유역,4.8,47,서울 강북구 노해로21길 7 2층,37.6439292,127.022168
카페브러리,수유역,4.8,6,서울 강북구 오패산로77길 8,37.6372226,127.0260686
어셈블,수유역,4.5,151,서울 강북구 한천로 1007 1층,37.6381911,127.0291969
소소카페,수유역,5.0,3,서울 강북구 한천로143길 25 1층,37.6405693,127.0239298
로쿠바 커피 로스터즈,수유역,5.0,66,서울 강북구 한천로139길 11 1층,37.639557,127.0262469
템포커피 수유사거리점,수유역,4.0,8,서울 강북구 도봉로81길 3,37.635116,127.0229205
공차 수유역점,수유역,3.9,36,서울 강북구 도봉로87길 7 1층,37.6381698,127.0250288
언유주얼,수유역,4.9,144,서울 강북구 한천로132길 66 1층 101~102호,37.6414279,127.0304133
칠복상회로스터스 수유,수유역,4.7,39,서울 강북구 한천로139가길 15 1층,37.6400986,127.0253154
빽다방 강북구청점,수유역,2.5,14,서울 강북구 도봉로87길 48 1층,37.6391735,127.0232893
수유리조트,수유역,,291,"서울 강북구 노해로8가길 45 1, 2층",37.6400886,127.0233461
델디아,수유역,4.9,33,서울 강북구 오패산로 396-1 1층,37.6366904,127.0278382
까페히로,수유역,5.0,8,서울 강북구 도봉로68길 34 1층,37.631302,127.0263088
인더레드박스,수유역,3.0,3,서울 강북구 도봉로 351 1층,37.639047,127.0263383
투썸플레이스 수유역점,수유역,2.0,12,서울 강북구 오패산로 416 2-3층,37.6377915,127.0261432
이디야커피 수유역점,수유역,,33,서울 강북구 도봉로 355,37.6393918,127.026749
꿈냥꿈냥,수유역,,36,서울 강북구 한천로139길 42 영남빌딩 2층 202호,37.638904,127.0249021
메가MGC커피 수유점,수유역,1.9,20,서울 강북구 도봉로 379 1층,37.6410308,127.0284473
책방 시행과착오,수유역,5.0,21,서울 강북구 도봉로96길 75 1층,37.638769,127.0322427
드롭바이드롭,수유역,4.3,15,서울 강북구 도봉로68길 33,37.6314776,127.0262287
메리모로우,수유역,5.0,20,서울 강북구 도봉로82길 25 1층,37.6354268,127.0250811
오닛,수유역,4.0,37,서울 강북구 한천로131길 41 금토토빌딩 1층,37.6375719,127.0267175
에피네 수유,수유역,4.5,52,서울 강북구 도봉로 315 3층 R312호,37.6371317,127.0233498
히치케이커,수유역,5.0,34,서울 강북구 한천로139가길 14 초이스빌딩 1층,37.6401286,127.0255953
메가MGC커피 수유사거리점,수유역,2.9,24,서울 강북구 도봉로 289 1층,37.634182,127.0230356
컴폴커피,수유역,4.8,129,서울 강북구 덕릉로 130 1층,37.63483430000001,127.0280878
리리앤펫,수유역,4.0,8,서울 강북구 한천로131길 33 2층,37.637922,127.0269062
펠어커피초코 수유점,수유역,4.1,122,서울 강북구 노해로 37 1층,37.6389055,127.0225089
빽다방 수유시장점,수유역,3.9,15,서울 강북구 도봉로67길 8 1층 101호,37.6308705,127.0237506
요거트아이스크림의정석 수유점,수유역,5.0,14,서울 강북구 노해로 13 1층,37.6368443,127.0227077
스타벅스 쌍문도봉로점,수유역,4.3,70,서울 도봉구 도봉로 444 1층,37.6452715,127.033142
이디야커피 수유사거리점,수유역,2.4,17,서울 강북구 덕릉로 82 제네스타워 1층,37.6344033,127.0228501
매머드익스프레스 수유시장점,수유역,5.0,8,서울 강북구 도봉로67길 18 1층,37.6307808,127.0229483
CBC,수유역,5.0,80,서울 강북구 삼각산로28길 84 1층,37.6372037,127.0198774
홍,수유역,5.0,4,서울 강북구 덕릉로40길 79,37.6343885,127.0335568
도본,수유역,3.9,57,서울 도봉구 우이천로 288-3 1층,37.64385559999999,127.0301978
라카페갤러리,경복궁,4.7,322,서울 종로구 자하문로10길 28 1층,37.5792927,126.9730284
애즈라이크,경복궁,3.9,495,서울 종로구 효자로7길 23 1층,37.5784234,126.9733336
아키비스트,경복궁,3.9,768,서울 종로구 효자로13길 52 1층,37.5822158,126.9726772
어니언 안국,경복궁,3.5,1207,서울 종로구 계동길 5,37.5776235,126.9865541
테라로사 광화문점,경복궁,4.0,355,서울 종로구 종로1길 50 더케이트윈타워 B동 1층,37.574708,126.979549
나무사이로,경복궁,4.1,455,서울 종로구 사직로8길 21 1층,37.5746678,126.9709706
스태픽스,경복궁,3.3,1194,서울 종로구 사직로9길 22 1층 102호,37.5776587,126.9678039
포비 광화문점,경복궁,4.3,874,서울 종로구 종로3길 17 광화문D타워 1층 21호,37.5709867,126.97892
블루보틀 삼청 카페,경복궁,3.5,859,서울 종로구 북촌로5길 76 1~3층,37.5800995,126.9808429
서울서둘째로잘하는집,경복궁,4.1,412,서울 종로구 삼청로 122-1,37.5862441,126.9818509
스모어마켓 픽사하우스,경복궁,4.3,359,"서울 종로구 율곡로3길 74-3 1,2층",37.5790204,126.982394
더마틴,경복궁,3.9,364,서울 종로구 자하문로 54-1 1층,37.5809502,126.9714965
인텔리젠시아 커피 서촌,경복궁,3.1,423,서울 종로구 자하문로 34 1층,37.5790884,126.9717598
프릳츠 원서점,경복궁,3.1,242,서울 종로구 율곡로 83 1층,37.577738,126.9883615
도트블랭킷,경복궁,4.2,626,서울 종로구 윤보선길 22 1층,37.5770255,126.9841015
대오서점,경복궁,2.9,91,서울 종로구 자하문로7길 55,37.5797341,126.9693256
코피티암커피 경복궁점,경복궁,3.5,147,서울 종로구 자하문로4길 7,37.5774028,126.9726376
호아드카페&갤러리,경복궁,3.5,152,서울 종로구 율곡로1길 54-3,37.5781949,126.9811224
널담은공간,경복궁,3.5,858,서울 종로구 삼청로 24 1층,37.5780502,126.9798327
통의동단팥,경복궁,4.4,185,서울 종로구 자하문로 20-1,37.5779575,126.9722402
eert 경복궁점,경복궁,3.2,20,서울 종로구 사직로 127 1~3층,37.5760499,126.9730692
온그라운드 지상소,경복궁,3.2,260,서울 종로구 자하문로10길 23 1층,37.5795215,126.9727876
대충유원지 인왕산,경복궁,3.7,374,서울 종로구 필운대로 46 무목적빌딩 4층,37.5800431,126.9688155
팔발라 삼청본점,경복궁,3.0,464,서울 종로구 삼청로 61,37.5813375,126.9806076
오설록티하우스 현대미술관점,경복궁,4.4,229,서울 종로구 삼청로 30 1층,37.5795117,126.9805862
팀홀튼 광화문 케이트윈타워점,경복궁,3.6,51,서울 종로구 종로1길 50 B동 1층,37.5747575,126.9792977
내자상회,경복궁,4.0,424,서울 종로구 사직로10길 3 1층,37.5757892,126.9704987
이도림 블로트커피X베이크,경복궁,4.8,500,서울 종로구 자하문로 43 1층,37.5799361,126.971078
삼청빙수,경복궁,3.5,318,서울 종로구 삼청로 84-1,37.5829896,126.9819967
결,경복궁,4.3,520,서울 종로구 우정국로 26 센트로폴리스 1층,37.5716155,126.9833532
mk2,경복궁,3.4,401,서울 종로구 자하문로10길 17,37.5795086,126.9725167
카페진선,경복궁,3.6,124,서울 종로구 삼청로 59 1층,37.5813829,126.9804664
티테라피 행랑점,경복궁,4.7,284,서울 종로구 윤보선길 74 1층,37.5791522,126.9835668
스타벅스 경복궁역점,경복궁,3.7,85,서울 종로구 자하문로4길 6 1층,37.5771847,126.9726176
부빙 북촌점,경복궁,4.1,318,서울 종로구 북촌로7길 3-4 1층,37.5800844,126.9846239
한옥찻집,경복궁,4.1,410,서울 종로구 인사동12길 9,37.5746115,126.9848769
카페 포르트,경복궁,4.1,14,서울 종로구 자하문로10길 7 1층,37.5796218,126.9719007
포비브라이트 광화문점,경복궁,4.1,306,서울 종로구 새문안로 76 콘코디언빌딩 1층,37.5697569,126.973165
베어카페,경복궁,3.7,267,서울 종로구 자하문로24길 24,37.5829054,126.9711115
차마시는뜰 차뜰,경복궁,3.1,57,서울 종로구 북촌로11나길 26 1층,37.5821823,126.9822749
블루보틀 스튜디오 서울,경복궁,3.9,134,서울 종로구 삼청로2길 40-3,37.5800861,126.9809699
카페레이어드 안국점,경복궁,,784,서울 종로구 북촌로2길 2-3 1층,37.5777355,126.9859281
카페죠꽁드,경복궁,3.6,72,서울 종로구 삼청로 90-3,37.5834415,126.9820948
커피원,경복궁,4.5,391,서울 종로구 새문안로3길 12 신문로빌딩 지하 1층,37.5713397,126.9729421
오뉴하우스,경복궁,4.3,222,서울 종로구 북촌로5가길 17,37.5803057,126.9818758
스타벅스 정부서울청사R점,경복궁,4.2,83,서울 종로구 새문안로5가길 28 광화문플래티넘 1층,37.5744107,126.9735709
라파리나,경복궁,4.1,1598,서울 종로구 자하문로 44 청민 1층,37.5799725,126.9715532
헤르만의정원,경복궁,3.8,276,서울 종로구 자하문로7길 62,37.5800487,126.969333
오쁘띠베르,경복궁,4.1,358,서울 종로구 자하문로 47-1,37.5802623,126.9709947
통인스윗,경복궁,3.6,254,서울 종로구 자하문로7길 50,37.5796417,126.9696363
노티드 안국,경복궁,3.5,1230,서울 종로구 북촌로 6-3 1층,37.5775431,126.9860839
도토리가든 안국점,경복궁,3.5,3638,서울 종로구 계동길 19-8 1층,37.5780907,126.9863109
스타벅스 광화문점,경복궁,3.4,213,서울 종로구 세종대로 167 현대해상본사사옥 별관내,37.570934,126.9761231
카페이마,경복궁,3.5,378,서울 종로구 세종대로 152 일민미술관 1층,37.5697944,126.9776649
스타벅스 안국점,경복궁,3.7,97,서울 종로구 북촌로 5-1,37.5773762,126.9856491
플랫커피,경복궁,3.5,87,서울 종로구 자하문로 14-1 1~3층,37.5774917,126.9724111
소격동60,경복궁,4.6,122,서울 종로구 삼청로 54-16,37.5805864,126.9809978
커피스트,경복궁,4.3,225,서울 종로구 경희궁길 39 1층,37.5727926,126.9694194
카페 보안,경복궁,4.3,46,서울 종로구 효자로 33 1층,37.57904389999999,126.9736188
스타벅스 삼청동점,경복궁,4.2,88,서울 종로구 삼청로 111-1,37.5853809,126.9817606
일일호일,경복궁,4.8,60,서울 종로구 자하문로 52,37.5806424,126.9714224
펠트커피 광화문점,경복궁,3.7,281,서울 종로구 종로3길 17 L층,37.5710694,126.978929
스타벅스 적선점,경복궁,4.0,50,서울 종로구 새문안로5길 55 노스게이트빌딩 1층,37.5750907,126.9739521
종로살롱,경복궁,3.9,185,서울 종로구 자하문로2길 20,37.5763648,126.9737909
슬로우파크,경복궁,,181,서울 종로구 삼청로 141 1층,37.587896,126.9815063
거울한옥미러룸,경복궁,3.3,111,서울 종로구 삼청로2길 40 1층,37.5800536,126.9811086
사직커피,경복궁,4.5,173,"서울 종로구 사직로 49-4 1, 2층",37.5738163,126.9650656
귀천,경복궁,4.8,42,서울 종로구 인사동14길 14,37.5747872,126.984896
세이지핀치,경복궁,4.3,378,서울 종로구 필운대로1길 8 1층,37.5774729,126.9689587
로우루프,경복궁,3.8,444,서울 종로구 북촌로 46-1 1층,37.5808924,126.9852514
스타벅스 경복궁사거리점,경복궁,3.9,39,서울 종로구 율곡로 6 트윈트리타워 B동 101호,37.5754632,126.9801416
놋그릇가지런히,경복궁,4.2,55,서울 종로구 자하문로13길 3,37.5799691,126.9709288
북촌전망대,경복궁,3.1,50,서울 종로구 북촌로11다길 22-3 3층,37.5830737,126.9827793
카페로쏘,경복궁,4.6,108,서울 종로구 삼청로 81-12 1층,37.5828729,126.9812561
미라보쇼콜라,경복궁,4.6,172,서울 종로구 자하문로5길 6 1층,37.577794,126.9714176
스타벅스 강동암사DT점,암사동 유적,4.0,56,서울 강동구 고덕로 43,37.5550483,127.1300217
아차산로59,암사동 유적,4.0,226,경기 구리시 아차산로 59,37.5636637,127.1147341
유로스타커피로스터스,암사동 유적,4.9,19,서울 강동구 암사길 41 1층 유로스타로스터스,37.5519909,127.1339097
카페이유,암사동 유적,,47,서울 강동구 고덕로 52-18 1층 101호,37.5539119,127.1306325
모던기와커피,암사동 유적,2.9,338,경기 구리시 아차산로 37,37.5616682,127.1138332
온더브레드 강동점,암사동 유적,2.2,42,서울 강동구 아리수로 55,37.561147,127.1530296
카페공공장소,암사동 유적,4.6,83,서울 강동구 암사길 7-1 암사동빌딩 1층 101호,37.55106900000001,127.1304125
강동꿈드래마켓 2호점,암사동 유적,5.0,2,서울 강동구 올림픽로 875,37.5609568,127.1306436
카페썸머,암사동 유적,5.0,27,서울 강동구 고덕로23길 6 1층 102호,37.5551174,127.135234
카페러블리,암사동 유적,4.6,14,서울 강동구 고덕로10길 22 1층,37.5537533,127.1298428
카페쏠트,암사동 유적,5.0,10,서울 강동구 고덕로 49 1층,37.5549872,127.1307758
메가MGC커피 암사점,암사동 유적,1.7,12,서울 강동구 고덕로 95 1층,37.5549255,127.135839
암사동편한커피 도서관라면,암사동 유적,5.0,9,서울 강동구 고덕로20길 47 제이하우스 1층,37.5526743,127.1336916
하이오커피 암사역점,암사동 유적,4.5,32,서울 강동구 올림픽로 797 1층 104호,37.5524034,127.1280506
메가MGC커피 선사사거리점,암사동 유적,3.1,9,서울 강동구 올림픽로 816 1층 103호,37.5536757,127.129106
제로투식스티커피,암사동 유적,,35,서울 강동구 고덕로 40 우전빌딩 1층,37.5545779,127.1296673
써니88케이크,암사동 유적,5.0,9,서울 강동구 상암로 12-8 1층 101호,37.5509212,127.1251025
바빈스커피 암사점,암사동 유적,3.7,23,서울 강동구 고덕로 89 1층,37.5549536,127.1352978
하이브커피,암사동 유적,0.0,8,서울 강동구 고덕로10길 15,37.5539804,127.1302302
하이오커피 강동암사점,암사동 유적,5.0,4,서울 강동구 고덕로 133 상가 1층 103호,37.5553105,127.1403856
본새커피 위드나따오비까,암사동 유적,5.0,4,서울 강동구 암사길 50 제이빌더스 106호,37.5515869,127.1348633
이디야커피 암사중앙점,암사동 유적,4.2,6,서울 강동구 암사길 50 제이빌더스 1층,37.5515869,127.1348633
호공간,암사동 유적,5.0,13,서울 강동구 고덕로25길 12 1층,37.5552527,127.1366137
2라운드,암사동 유적,4.7,10,"서울 강동구 양재대로151길 20 1,3층",37.554106,127.1430323
스타벅스 암사역점,암사동 유적,4.5,15,서울 강동구 올림픽로 786,37.5511669,127.128209
투썸플레이스 암사역점,암사동 유적,3.5,33,서울 강동구 올림픽로 778 2층,37.5503799,127.1279231
그랑카페,암사동 유적,3.0,1,서울 강동구 고덕로3길 10 1층,37.5552768,127.1287148
카페 네이비,암사동 유적,5.0,7,서울 강동구 암사1가길 37,37.5530694,127.130713
르카페블랑,암사동 유적,5.0,1,서울 강동구 고덕로28길 10-9 1층,37.5537855,127.137511
라모카,암사동 유적,5.0,2,"서울 강동구 상암로5길 18 암사오피스텔 1,2층",37.5511413,127.1273755
다라디저트카페,암사동 유적,5.0,5,서울 강동구 고덕로3길 6 예일빌딩 2층,37.5551438,127.1286106
카페씨모,암사동 유적,4.5,148,서울 강동구 고덕로38길 69 1층,37.5514772,127.1426882
메가MGC커피 암사역점,암사동 유적,3.0,20,서울 강동구 올림픽로 783 1층 102호,37.5511457,127.1276012
카페작은도시,암사동 유적,0.0,0,서울 강동구 고덕로 45 담원하우스 1층,37.5550473,127.1302395
퍼스트커피랩 강동암사점,암사동 유적,0.0,3,서울 강동구 고덕로20가길 27 1층,37.5541303,127.1354773
카페인24 암사역사공원역점,암사동 유적,5.0,1,서울 강동구 고덕로27길 33 1층,37.55626549999999,127.1377488
파트원나이스,암사동 유적,4.5,124,서울 강동구 올림픽로89길 29,37.54762789999999,127.1246294
리에또,암사동 유적,5.0,9,서울 강동구 암사길 14 102호,37.551097,127.1311265
SSA345카페,암사동 유적,5.0,1,서울 강동구 고덕로20가길 27 작은도시테라홈즈 1층,37.5541303,127.1354773
바이스트릿 강동점,암사동 유적,,34,서울 강동구 고덕로 102 1층 101호,37.554519,127.1365754
공차 암사역점,암사동 유적,2.7,17,서울 강동구 올림픽로 777 1층 101호,37.5505218,127.1273739
프레쉬몽땅카페,암사동 유적,4.8,5,서울 강동구 고덕로28길 10-5 1층,37.5540643,127.1376022
아메리앤샌드위치,암사동 유적,0.0,0,서울 강동구 고덕로23길 13 1층,37.5554624,127.1349551
메가MGC커피 암사브라운스톤점,암사동 유적,3.7,9,서울 강동구 상암로 54 상가동 1층 6호,37.5487192,127.1290507
HERE카페,암사동 유적,5.0,3,서울 강동구 상암로5길 54,37.5527042,127.1279423
보커피,암사동 유적,5.0,22,서울 강동구 구천면로 361 암사THENEST 1동 지하1층 B101호,37.5510341,127.1385663
커피인류 암사롯데캐슬점,암사동 유적,5.0,9,서울 강동구 고덕로 133,37.5553105,127.1403856
코블유,암사동 유적,4.5,46,서울 강동구 올림픽로89길 11 1층,37.5473871,127.1256214
체리쿠키,암사동 유적,5.0,28,서울 강동구 올림픽로93길 24 새봄빌라 1층 103호,37.5495964,127.1258233
골목커피,암사동 유적,0.0,1,서울 강동구 고덕로20길 38,37.5530833,127.1333778
꼬메131,암사동 유적,4.0,70,서울 강동구 올림픽로91길 30 힐스테이트강동리버뷰 상가동 1층 131호,37.5488496,127.1253672
알콩달콤,암사동 유적,0.0,1,서울 강동구 고덕로27길 15-26 거성스타힐 203동 1층 101호,37.555766,127.137005
스타벅스 명일역점,암사동 유적,3.8,60,서울 강동구 양재대로 1647,37.5525572,127.1437906
밀크베어,암사동 유적,0.0,0,서울 강동구 고덕로27길 33,37.55626549999999,127.1377488
커스텀커피 강동암사점,암사동 유적,2.6,16,서울 강동구 고덕로 133 강동롯데캐슬퍼스트아파트 상가동 107호,37.5566495,127.140649
감성커피 암사역점,암사동 유적,4.0,13,서울 강동구 상암로 28 1층,37.5503071,127.126739
카페선사,암사동 유적,5.0,11,서울 강동구 상암로 53 1층,37.5495251,127.129215
노티드 라이트룸 서울(휴업중),암사동 유적,2.8,18,서울 강동구 아리수로61길 105 1층,37.5645202,127.1461361
루나103,암사동 유적,2.8,39,경기 구리시 아차산로 103,37.5676666,127.116979
티하우스,암사동 유적,0.0,0,서울 강동구 상암로5길 77 1층,37.5538088,127.1281158
카페모리,암사동 유적,5.0,27,서울 강동구 올림픽로98길 62 1층 102호,37.5495674,127.129596
카페그린비,암사동 유적,5.0,2,서울 강동구 올림픽로100길 40 102호,37.5518641,127.1306576
요거트아이스크림의정석 암사점,암사동 유적,5.0,7,서울 강동구 올림픽로 757 1층 101호,37.5488868,127.126785
레드리본,암사동 유적,0.0,0,서울 강동구 고덕로24길 26,37.5535262,127.1354408
두콩,암사동 유적,5.0,5,서울 강동구 상암로3길 77,37.5540365,127.1271008
커피베이 강동암사역점,암사동 유적,0.0,0,서울 강동구 상암로4길 22 1층,37.5495959,127.1260726
빽다방 암사역점,암사동 유적,3.8,14,서울 강동구 올림픽로 770 영림빌딩 1층 101호,37.5497879,127.1276734
엘리스스푼컵케잌&커피,암사동 유적,5.0,10,서울 강동구 상암로 47,37.5497502,127.1288051
커피인하라,암사동 유적,0.0,0,서울 강동구 고덕로27길 25,37.5558913,127.1377373
그랜드워커힐서울 더파빌리온,암사동 유적,4.0,212,서울 광진구 워커힐로 177 본관 1층,37.5551679,127.1114168
놀이터,암사동 유적,4.4,6,서울 강동구 고덕로28길 52,37.5525116,127.1384955
스윗솔트,암사동 유적,4.5,851,서울 강동구 상암로 286,37.5457749,127.1542027
꽃차드림,암사동 유적,0.0,0,서울 강동구 상암로5길 77 유진아파트 1층 101호,37.5538088,127.1281158
이츠커피,암사동 유적,5.0,2,서울 강동구 암사길 19 1층,37.5515711,127.1314335
로즈애플 강동롯데캐슬점,암사동 유적,5.0,25,서울 강동구 고덕로 133 롯데캐슬상가 1층 108호,37.5553105,127.1403856
